,Latitude,Longitude,City Name,Temperature,Humidity,Cloudiness,Windspeed
0,-53.732488325550364,-72.00602281245733,punta arenas,33.8,74,20,6.93
1,-53.13875917278185,39.16883885348014,east london,64.4,82,40,14.99
2,-52.66377585056704,26.48612957175564,kruisfontein,66.94,91,76,18.03
3,-51.832555036691126,-59.936928507576646,ushuaia,35.6,100,75,16.11
4,-50.763842561707804,-45.48197547255714,mar del plata,57.94,57,0,24.07
5,-50.28885923949299,-66.01823113366332,rio gallegos,39.2,80,40,14.99
6,-49.69513008672448,32.04112780117046,port alfred,67.93,90,0,17.36
7,-48.507671781187454,-80.52975257323313,coihaique,51.8,66,90,8.05
8,-48.388925950633755,10.927920961627308,hermanus,60.19,96,76,3.6
9,-43.99533022014676,28.091033903343686,port elizabeth,38.03,59,1,5.82
10,-43.40160106737825,9.101288661241767,cape town,62.6,88,20,12.75
11,-42.45163442294863,-83.7661671983476,castro,52.72,98,92,5.5
12,-41.38292194796531,-91.49286097362153,ancud,53.89,96,88,4.94
13,-41.26417611741161,-46.18851483645717,chuy,63.43,90,0,22.06
14,-41.1454302868579,68.03990401233955,souillac,34.61,93,0,4.7
15,-40.7891927951968,-61.39671314955763,viedma,51.46,53,0,10.54
16,-40.6704469646431,24.18771528030868,plettenberg bay,64.69,100,88,10.65
17,-40.314209472981986,20.391401825778246,bredasdorp,64.4,88,80,5.82
18,-39.720480320213476,-61.59596880027358,punta alta,75.2,88,40,9.17
19,-39.48298865910607,-50.32800958488296,rocha,59.02,87,32,16.02
20,-36.63308872581721,-67.07053395743671,san rafael,43.72,43,0,2.26
21,-36.51434289526351,-64.9928915392776,santa rosa,48.31,61,0,3.94
22,-36.0393595730487,-42.627004114919245,cidreira,73.24,96,88,11.65
23,-35.683122081387594,116.64520272793956,albany,19.74,38,20,3.36
24,-34.25817211474316,-66.95570123108922,san luis,45.88,46,0,3.6
25,-34.13942628418946,7.846268967185409,saldanha,38.59,97,92,8.08
26,-34.020680453635755,-63.641320513756206,rio cuarto,51.8,53,0,6.93
27,-33.901934623082056,-62.29035927423258,venado tuerto,49.93,63,0,5.95
28,-33.66444296197465,-40.42275479833076,laguna,58.57,60,0,3.04
29,-33.545697131420944,-72.28541924759801,san antonio,50,93,0,3.36
30,-32.833222148098734,-56.44596774590906,paso de los toros,57.49,85,0,14.34
31,-32.59573048699133,-71.07911307657928,cabildo,53.6,81,0,4.7
33,-32.00200133422281,110.8814186785579,busselton,76.57,80,0,6.62
34,-31.883255503669112,34.305760229110064,richards bay,72.88,74,0,7.07
35,-31.527018012008007,47.37813648056195,ambovombe,78.46,82,12,16.8
36,-31.2895263509006,-97.79355755050976,lebu,53.6,81,20,4.7
37,-30.81454302868579,117.14556364175053,northam,32,100,24,19.46
38,-29.74583055370247,-26.481629337653686,sao joao da barra,79.81,98,0,18.03
39,-29.508338892595063,42.018960054064166,beloha,80.8,71,20,15.01
40,-29.152101400933958,-35.19363827688457,arraial do cabo,76.39,99,12,14.56
41,-28.795863909272846,25.718270950153737,bloemfontein,51.8,100,90,2.24
42,-27.727151434289524,-62.87184590017851,santiago del estero,65.05,56,0,5.61
43,-27.608405603735825,116.63983685875436,geraldton,-0.41,54,20,4.5
44,-27.48965977318212,16.39062952688559,oranjemund,61.18,97,92,18.92
46,-27.133422281521014,-50.485415159931165,curitibanos,64.24,94,12,2.37
48,-26.77718478985991,64.80248875930141,mahebourg,78.8,94,75,9.17
49,-26.658438959306203,-23.611786499700273,vila velha,82.4,78,40,5.82
50,-26.420947298198797,26.64975301253554,klerksdorp,61.18,92,56,9.42
51,-26.18345563709139,-82.8413668475109,coquimbo,55.4,87,0,2.24
53,-25.70847231487658,55.6154033657634,saint-joseph,42.24,93,0,3.36
54,-25.470980653769182,11.399866280591425,luderitz,55.4,87,0,4.7
55,-24.995997331554364,8.912630923647498,walvis bay,59,87,90,2.37
56,-24.87725150100067,-53.38073249764466,corbelia,75.31,90,0,2.71
57,-24.40226817878586,-74.66860759272657,taltal,48.4,100,0,1.92
60,-23.571047364909944,-27.752403796863177,caravelas,81.34,100,76,13.11
61,-23.452301534356238,57.44457121932325,saint-philippe,14,51,1,7.96
62,-23.33355570380253,-89.87095325559505,pisco,68,82,0,3.36
63,-23.214809873248825,16.35902705032308,rehoboth,60.64,89,0,2.82
64,-23.096064042695133,-60.271532724759574,filadelfia,84.4,65,92,5.84
65,-22.502334889926615,-77.46279761514114,antofagasta,60.8,87,40,12.75
66,-22.38358905937291,53.837741880512,saint-leu,83.34,69,48,2.24
67,-22.264843228819217,60.477789100357285,bambous virieux,78.8,94,75,9.17
68,-22.14609739826551,38.711555199030755,inhambane,78.1,92,0,9.08
69,-21.789859906604406,33.52164004467258,chipinge,69.37,97,32,3.94
71,-21.4336224149433,48.057618489607194,mananjary,64.06,100,88,4.61
72,-21.314876584389594,9.592427228184505,henties bay,62.71,99,20,4.16
73,-21.196130753835888,97.59820547794749,carnarvon,50.74,58,0,2.59
74,-21.07738492328218,38.835856111928194,quelimane,75.2,94,75,8.05
75,-20.721147431621077,36.059395527381895,beira,43.65,93,75,5.82
77,-20.246164109406266,21.44919317442995,nokaneng,70.36,82,36,4.61
78,-19.88992661774516,-37.947388093659214,linhares,70.18,94,0,3.27
79,-19.652434956637762,33.492019699538105,chimoio,68,94,40,6.93
82,-18.93995997331554,111.99918958892971,karratha,110.05,12,0,9.64
83,-18.821214142761846,-91.92665752594161,hualmay,64.24,93,8,0.36
84,-18.70246831220814,-42.16307079541818,governador valadares,68.83,88,20,4.72
85,-18.583722481654434,39.06335020634586,mocuba,75.04,94,88,7.4
86,-17.63375583722481,5.956278309436172,namibe,76.84,100,88,3.15
87,-17.15877251501,117.12932404911342,port hedland,107.6,18,0,17.22
88,-17.040026684456308,41.42754957436114,angoche,79.81,100,88,13.78
90,-16.683789192795203,-71.33143758065786,arequipa,53.6,76,0,3.27
91,-16.565043362241497,28.741235652861775,siavonga,70.9,100,92,4.5
92,-16.44629753168779,-91.024058852563,huarmey,61.9,92,8,1.81
93,-16.20880587058039,67.51232246087903,quatre cocos,78.8,94,75,9.17
94,-15.852568378919273,110.12030062991903,bambanglipuro,82.42,100,8,4.61
95,-15.615076717811874,-29.09821324016127,maceio,73.4,88,0,2.24
96,-15.496330887258168,-46.51425184722031,buritis,67.48,98,68,4.16
98,-15.25883922615077,-67.8205006879607,guanay,66.85,95,92,1.14
99,-14.902601734489664,-48.22360733003811,niquelandia,67.39,91,0,2.59
100,-14.783855903935958,-55.887623462733615,nobres,73.87,86,56,3.94
101,-14.665110073382252,-2.9189572028322885,jamestown,74.32,46,0,11.21
102,-14.546364242828545,-75.13017199389155,palpa,48.58,87,8,1.7
103,-14.427618412274853,117.18057442292326,waingapu,85.57,70,24,3.94
104,-14.071380920613748,56.75526623782423,cap malheureux,78.8,94,75,9.17
105,-13.952635090060042,65.93997650782163,grand gaube,78.8,94,75,9.17
106,-13.833889259506336,-48.706260676643424,porangatu,69.37,94,68,2.82
107,-13.596397598398937,36.454604710305944,cuamba,72.34,82,56,4.94
108,-13.358905937291524,-70.18914822863707,macusani,46.6,97,56,0.47
109,-12.883922615076713,-54.1624441793284,diamantino,72.88,92,32,2.37
110,-12.765176784523021,-77.5119998165248,chilca,50,87,75,3.36
111,-12.646430953969315,108.29672417789817,srandakan,82.42,100,8,4.61
113,-12.052701801200797,-68.44968408236798,puerto maldonado,71.62,97,32,2.15
114,-11.815210140093399,-70.08920245039789,iberia,72.07,96,88,1.7
115,-11.696464309539692,-116.77716035873212,rikitea,79.63,100,56,17.92
116,-11.340226817878587,52.86478052476264,sambava,81.61,98,20,18.48
117,-11.102735156771175,-74.68680084544468,satipo,63.34,94,68,1.36
119,-10.271514342895259,14.878093886484777,kibala,77,73,0,11.43
121,-9.796531020680447,33.86909207288056,karonga,72.52,100,56,3.38
122,-9.559039359573049,50.59309287001983,ambilobe,74.59,100,92,6.06
123,-9.440293529019343,-25.020334020592003,olinda,78.8,83,40,6.93
124,-9.084056037358238,17.295802272988766,malanje,65.77,97,88,3.6
125,-8.252835223482322,-61.142104600520824,aripuana,74.95,95,44,1.92
126,-8.134089392928615,-43.95669645960757,canto do buriti,68.92,91,20,2.93
127,-7.7778519012675105,22.0911237929717,lucapa,65.86,100,92,3.83
128,-7.659106070713804,-81.85728375085375,pimentel,74.59,96,76,2.26
129,-7.421614409606406,38.13880161498474,kisanga,66.4,88,8,5.61
130,-7.184122748498993,43.788879412164846,kilindoni,81.88,100,80,7.4
131,-6.946631087391594,108.97379889897033,bulakamba,82.69,100,0,6.73
132,-6.827885256837888,-27.157363025992765,pitimbu,73.4,88,20,6.51
133,-6.709139426284182,-51.027486396461825,sao felix do xingu,70.63,100,80,1.92
134,-6.352901934623077,18.008125547029067,kasongo-lunda,71.44,87,68,2.37
135,-6.234156104069385,-40.94319133368643,parambu,66.85,97,80,4.16
136,-5.996664442961972,33.995439158056286,mgandu,68.38,100,0,4.38
137,-5.7591727818545735,38.71601147886378,pangani,82.69,87,8,8.63
138,-5.640426951300867,27.469915171806463,kongolo,70.27,98,92,3.27
139,-5.521681120747161,-30.512977757881004,cabedelo,73.4,88,20,6.51
140,-5.284189459639762,-118.12207782216194,atuona,82.06,99,80,20.6
141,-5.165443629086056,39.843921741212625,chake chake,82.69,96,64,14
142,-5.04669779853235,110.48513004819404,mlonggo,87.82,80,0,2.71
143,-4.571714476317538,-62.048071319454166,codajas,75.49,96,8,2.71
144,-4.33422281521014,-84.59644203368846,talara,72.16,79,48,3.83
145,-4.2154769846564335,10.129789803417736,mayumba,79.36,100,44,5.73
146,-4.096731154102741,-6.158977437320445,tabou,81.07,99,8,7.63
147,-3.62174783188793,19.80960301531985,mangai,71.89,97,92,3.71
148,-3.503002001334224,14.51464475637286,kinkala,71.6,94,20,2.24
149,-3.3842561707805174,-61.71034892737181,anori,75.49,96,8,2.71
150,-3.146764509673119,96.5286607186546,padang,81.34,100,32,5.61
151,-2.5530353569046014,-27.50197852777754,natal,80.6,78,40,6.93
152,-2.315543695797203,18.306092125409265,inongo,69.73,100,92,3.71
153,-2.1967978652434965,-71.99225031785299,iquitos,77,83,75,5.82
154,-1.8405603735823917,-52.174758210171575,porto de moz,75.4,95,76,3.15
156,-1.4843228819212868,80.85080290345806,matara,40.39,100,48,2.15
157,-1.246831220813874,64.2170284394413,hithadhoo,85.3,98,88,10.42
158,-1.1280853902601677,10.465497209917828,fougamou,74.77,93,92,2.82
159,-1.0093395597064756,111.05347634592539,pangkalanbuun,87.73,88,48,3.71
160,-0.7718478985990629,-79.46790967772641,quevedo,61.27,100,92,0.69
161,-0.5343562374916644,32.9431946931046,kalangala,70,100,88,13.44
163,-0.17811874583055953,6.5029799488923175,port-gentil,80.44,99,88,3.38
164,0.05937291527685318,-67.38144783810606,sao gabriel da cachoeira,76.39,92,8,1.92
165,0.2968645763842517,-71.88693974060153,miraflores,53.44,100,92,1.92
166,0.41561040693795803,112.22449166427086,sri aman,89.6,70,75,1.12
167,0.6531020680453707,66.01605435225252,thinadhoo,85.93,95,88,10.09
168,0.7718478985990629,-22.47930553641139,georgetown,69.8,94,0,4.61
169,0.8905937291527692,-63.60494290939638,santa isabel do rio negro,79.36,82,44,5.73
170,1.0093395597064756,97.39462736831322,sibolga,79.09,88,56,1.36
171,1.1280853902601677,45.69712783902486,mogadishu,82.4,88,75,13.87
172,1.3655770513675805,-9.379876072801608,harper,59,36,1,9.42
173,1.603068712474979,-55.273862497654946,grand-santi,74.86,87,48,3.38
174,1.959306204136098,35.390087277723836,amudat,69.1,89,12,3.38
175,2.07805203468979,54.94407553831152,victoria,86,84,75,3.36
176,2.434289526350895,-27.12820607029829,touros,80.89,83,88,7.74
177,2.6717811874583077,36.52611466598563,lodwar,77.02,83,20,3.15
178,2.790527018012014,45.872787550072616,jawhar,90.7,38,32,4.61
179,2.9092728485657062,-33.57584957821548,aquiraz,82.4,78,40,5.82
180,3.0280186791194126,26.55897180733504,isiro,72.79,90,92,3.04
181,3.146764509673119,72.89104765617282,kudahuvadhoo,84.58,100,0,11.54
182,3.3842561707805174,84.76182076899624,hambantota,85.3,93,20,10.09
183,3.503002001334224,-101.26911807894467,puerto ayora,77.02,100,88,3.71
184,3.62174783188793,94.70981310214503,meulaboh,82.78,100,44,3.6
185,3.7404936624416223,-87.08773448786788,san cristobal,55.4,82,75,4.7
186,3.8592394929953286,-45.84763622870578,salinopolis,80.26,100,80,9.42
187,4.096731154102741,44.38952859706245,xuddur,79.27,62,0,15.46
188,4.2154769846564335,4.847353448697177,warri,75.85,95,36,3.15
190,4.571714476317553,-66.96596632993166,inirida,75.67,88,24,1.81
191,4.809206137424951,2.8857201892460296,cotonou,82.4,83,40,11.41
193,5.04669779853235,-61.8578369627872,boa vista,80.6,61,40,6.93
194,5.284189459639762,-12.171977541292378,robertsport,79.09,100,88,8.97
195,5.402935290193469,-108.60728629146551,lazaro cardenas,60.8,19,40,8.05
196,5.640426951300867,-47.39999250076232,saint-georges,8.98,62,44,7.85
197,5.996664442961972,38.172630271290444,dilla,61.99,93,48,3.71
198,6.115410273515678,-1.3917476133040054,obuasi,71.53,97,0,3.04
199,6.234156104069385,-77.76478508628286,mutis,75.04,100,80,3.94
200,6.352901934623077,101.41653744924872,yala,87.8,70,20,9.17
201,6.471647765176783,1.2395370860964192,tsevie,80.6,88,20,11.41
202,6.5903935957304896,62.80755807707047,ugoofaaru,83.86,100,44,11.54
203,6.709139426284196,-80.51627545294222,la palma,67.12,96,68,0.69
204,6.827885256837888,62.540260583457666,kulhudhuffushi,82.87,100,0,9.64
205,7.065376917945301,-70.20315468667465,arauca,79.54,62,8,6.4
208,7.421614409606406,103.32835911369762,tumpat,87.06,74,75,8.05
209,7.540360240160112,-37.110783440955046,itarema,74.5,95,44,4.05
210,7.7778519012675105,-105.09711934895762,san jeronimo,40.39,100,48,2.15
211,7.896597731821217,102.53494863003723,sai buri,87.8,70,20,9.17
212,8.015343562374923,1.1296858097824725,atakpame,70.99,94,0,3.49
213,8.134089392928615,-55.956805608021384,totness,57.45,82,75,8.05
214,8.252835223482322,69.89494274594352,dhidhdhoo,82.87,100,0,9.64
215,8.490326884589734,93.89308592808561,sabang,79.54,94,92,6.96
216,8.609072715143427,50.359339925867005,eyl,78.37,93,44,13.22
217,8.727818545697133,36.443770474396416,bedele,63.34,80,64,3.83
218,8.84656437625084,-44.8044862128755,cayenne,75.2,100,90,2.24
219,8.965310206804531,-27.19647644034245,sao filipe,70.45,94,0,16.02
220,9.084056037358238,-75.90676898028406,buenavista,64.4,100,75,4.7
221,9.202801867911944,-17.609374325049984,bubaque,75.85,100,8,8.63
222,9.559039359573049,-77.72155675263416,ailigandi,75.67,98,92,4.72
223,9.796531020680447,50.28525608417914,bandarbeyla,78.73,100,8,10.31
224,9.915276851234154,41.315914068854255,deder,75.76,56,44,1.92
225,10.03402268178786,95.7616540004907,ranong,91.4,55,75,8.05
226,10.271514342895259,-65.55575047623103,barcelona,38.3,70,20,10.29
227,10.390260173448965,-105.51750454585545,ixtapa,68,100,5,1.92
228,10.509006004002671,101.41068273422388,ko samui,87.8,66,20,8.05
229,10.627751834556378,10.501927840624745,duku,72.34,54,24,8.08
230,10.74649766511007,-14.01360725750591,boke,68.47,95,20,2.71
231,10.865243495663776,19.392597682664757,am timan,72.16,28,8,4.38
232,10.983989326217483,29.474090479740056,kaduqli,75.67,31,0,4.72
233,11.340226817878587,32.78747539760704,marabba,80.98,15,0,10.2
234,11.577718478985986,-113.647049801546,san patricio,72.88,89,36,7.74
235,11.696464309539692,-98.11119553866857,puerto escondido,77,78,5,3.36
236,11.815210140093399,-61.536681297210265,grenville,14.2,36,20,8.05
237,11.933955970647105,-85.40745129539084,juigalpa,73.69,77,8,7.4
238,12.052701801200797,83.88273854006357,madras,36.91,64,40,4.7
240,12.29019346230821,15.723227509320083,massaguet,66.4,24,0,6.17
241,12.527685123415608,-91.30621931257323,san jose,88.54,52,0,3.04
242,12.765176784523021,83.04411050768155,kattivakkam,87.8,58,20,5.82
243,12.883922615076713,71.94093496394908,kavaratti,82.51,100,12,10.54
244,13.00266844563042,113.52656204305384,tuy hoa,84.13,74,0,6.17
246,13.240160106737832,117.39671214104857,buluang,87.8,66,75,11.41
247,13.358905937291524,80.10871820991326,gummidipundi,87.8,58,20,5.82
249,13.596397598398937,75.20171038585175,tirthahalli,87.55,63,32,2.93
250,13.71514342895263,-95.47862611754226,pochutla,77,78,5,3.36
251,13.833889259506336,-91.73699193130578,champerico,75.2,53,5,1.25
252,13.952635090060042,50.69933665257551,bereda,44.6,93,75,5.82
253,14.308872581721147,89.42351150033645,port blair,83.14,100,0,9.19
254,14.427618412274853,116.38894944856318,palauig,86.74,69,20,3.83
255,14.54636424282856,4.237459830566365,dogondoutchi,64.24,42,20,4.72
256,14.665110073382252,9.42502209440994,tanout,60.64,27,0,2.71
257,14.902601734489664,-8.734821485056287,nioro,70.81,33,0,10.54
258,15.021347565043357,-89.08480990146997,nueva armenia,66.2,63,20,2.04
259,15.25883922615077,-101.63925353556344,tecpan,66.2,88,40,4.7
260,15.496330887258168,27.305172712639063,umm kaddadah,68.56,14,0,7.29
261,15.615076717811874,-5.904069939130125,sokolo,70.54,24,12,12.77
262,15.73382254836558,-16.45051020307494,louga,64.4,77,0,9.17
263,15.852568378919287,-27.75537388140677,porto novo,71.6,94,0,2.24
264,15.971314209472979,20.38920718675564,biltine,73.78,17,0,13
265,16.20880587058039,95.83692088898982,pyapon,93.04,52,0,5.28
266,16.327551701134084,69.65325373374796,ratnagiri,85.84,86,8,3.6
267,16.44629753168779,24.436679676666586,kutum,64.15,18,0,7.18
268,16.565043362241497,-56.0503957645046,bathsheba,77,73,40,13.87
269,16.802535023348895,-75.14351714714826,morant bay,78.8,78,20,3.36
270,16.9212808539026,112.52701331078333,wanning,21.2,73,75,9.17
272,17.158772515010014,69.31652093739325,srivardhan,88.99,60,12,1.14
273,17.277518345563706,44.729596147954965,najran,62.6,27,0,4.27
274,17.396264176117413,103.62290475068289,sawang daen din,90.16,72,0,4.72
275,17.51501000667112,-43.85574255583981,sinnamary,77.47,100,92,9.64
276,17.98999332888593,-104.8960278226656,manzanillo,75.85,100,0,12.1
277,18.346230820547035,-62.67225263996106,the valley,77,78,20,3.36
278,18.583722481654434,-102.70702388571429,aguililla,60.1,81,36,2.37
279,18.70246831220814,1.2223232010409077,kidal,62.26,18,0,10.09
281,18.93995997331554,-88.79942512795076,bacalar,78.8,83,40,11.41
283,19.17745163442295,-74.33933689951957,jeremie,73.87,100,20,8.41
284,19.296197464976657,-64.71445048806717,road town,71.6,100,1,4.83
285,19.41494329553035,53.31713619825143,salalah,75.2,57,0,2.24
286,20.008672448298867,63.313378347957666,sur,77.83,86,0,6.4
287,20.127418278852574,-108.26232078159305,bucerias,68,100,5,12.1
288,20.48365577051368,48.88568283171682,abu samrah,60.64,52,0,2.71
289,20.602401601067385,96.15379300492839,yamethin,89.26,48,0,9.19
290,20.721147431621077,89.13927706731059,harindanga,87.8,52,0,4.7
291,21.077384923282196,-89.63890826606942,caucel,82.4,61,20,11.41
292,21.196130753835888,-110.99219301304016,cabo san lucas,64.4,72,5,9.17
293,21.314876584389594,-71.15320072874182,cockburn town,73.42,100,100,6.4
294,21.552368245496993,69.83040760062241,ranavav,80.6,57,0,9.17
295,21.789859906604406,83.58669954038962,raigarh,91.96,28,0,5.28
296,21.908605737158112,-107.2611963627996,mazatlan,68,68,5,4.7
297,22.027351567711804,39.86237580716195,mecca,77,57,0,4.83
298,22.264843228819217,12.703859263421833,bilma,58.3,32,0,2.93
299,22.383589059372923,90.49155866849381,lalmohan,87.64,63,0,2.59
300,22.502334889926615,84.84769135274473,birmitrapur,90.16,31,0,5.39
301,22.62108072048032,9.448965044222206,gat,71.6,43,0,4.7
302,22.739826551034028,21.190322501403415,faya,59.05,54,0,4.38
303,22.85857238158772,110.62131455748602,nandu,48.2,81,90,6.71
304,23.21480987324884,-15.932717140084947,nouadhibou,62.6,77,0,24.16
305,23.452301534356238,-96.38555951266564,nuevo progreso,74.7,88,40,11.41
306,23.571047364909944,112.29166790952647,huaicheng,64.24,100,92,3.6
307,23.68979319546365,108.45310254171005,binzhou,49.75,69,0,19.48
308,23.808539026017343,70.59120247188076,rapar,87.37,31,0,7.74
309,23.92728485657105,-110.68632556667038,la paz,64.4,68,5,4.7
310,24.046030687124755,-81.30901165402383,key west,33.31,86,90,7.4
311,24.283522348232154,-14.578826166683257,aguimes,64.4,77,20,18.34
312,24.521014009339567,75.0555061156663,manasa,90.52,28,24,9.98
313,24.63975983989326,92.58166827804757,hailakandi,84.04,73,0,3.83
314,24.758505670446965,-114.07846543820872,constitucion,48.85,42,0,6.73
315,24.87725150100067,79.9190514301433,khajuraho,90.34,15,8,4.5
316,24.995997331554378,-79.31028375582022,alice town,73.87,100,0,8.97
317,25.470980653769175,46.888435166184024,riyadh,59,30,0,5.17
318,25.708472314876587,-35.87435182860277,ponta do sol,63.79,87,44,3.38
319,25.827218145430294,117.51606661878594,yongan,45.07,69,68,4.72
320,25.945963975983986,-90.69704655523762,houma,50.56,57,76,3.71
321,26.064709806537692,-109.264124060358,ahome,59,67,5,6.93
322,26.1834556370914,29.413257565162496,asyut,68.83,40,0,6.4
323,26.30220146764509,-50.877437428970566,codrington,84.31,67,0,3.71
325,26.539693128752504,20.76933272322026,jalu,55.42,64,0,2.93
326,26.65843895930621,-114.39430307929979,guerrero negro,55.51,97,20,13
327,26.777184789859902,102.0762220059894,panzhihua,68.65,35,0,2.59
328,27.13342228152102,78.29693731020524,tundla,87.64,38,0,3.71
329,27.37091394262842,-97.89369689501422,kingsville,36.32,80,1,6.62
330,27.489659773182126,64.47417828619683,dalbandin,68.2,61,0,10.76
331,27.608405603735818,101.59348231881688,xichang,57.67,38,48,2.04
332,27.84589726484323,-112.01943286948894,santa rosalia,53.42,62,20,20.8
333,27.964643095396937,-93.98931426568203,galveston,36.14,74,1,3.36
334,28.08338892595063,25.8024766043431,marsa matruh,62.6,82,40,17.22
335,28.320880587058042,118.84498112007296,quzhou,57.67,100,92,5.17
336,28.43962641761175,2.465509343664692,adrar,55.4,17,0,6.93
338,28.914609739826545,47.24154935919856,doha,71.6,46,0,8.05
339,29.03335557038025,-16.453770132716855,tacoronte,60.33,100,56,19.46
340,29.270847231487664,-23.481074419977972,los llanos de aridane,64.4,68,0,5.82
341,29.389593062041357,-69.22231489592448,hamilton,62.6,77,75,13.87
342,29.508338892595063,119.67843187892004,lanxi,55.24,96,92,3.38
343,29.62708472314877,77.43040790289109,jalalabad,64.4,59,75,2.24
344,29.745830553702476,78.09852117403622,sultanpur,84.85,57,8,4.83
345,29.864576384256168,-10.339865892672236,tiznit,52,95,0,3.27
346,29.983322214809874,66.60236026316764,mastung,61.72,68,0,4.61
347,30.10206804536358,117.51570125740864,chizhou,51.64,92,88,7.85
348,30.220813875917273,9.370277543283208,nalut,56.5,67,8,12.88
349,30.33955970647098,112.58349483885527,qianjiang,52.27,93,92,10.98
351,30.57705136757839,103.82085278067504,huayang,78.82,61,76,3.38
352,30.933288859239497,-81.35940788597523,saint simons,65.82,93,75,11.41
353,31.052034689793203,-100.43393242031831,san angelo,62.6,25,1,9.17
354,31.170780520346895,100.05684628206944,yaan,77.29,85,0,10.98
355,31.2895263509006,33.233848367320206,port said,72.97,14,0,2.26
356,31.408272181454308,69.20485495091475,zhob,63.79,52,0,4.94
357,31.527018012008,53.02234923595671,taft,83.41,92,12,8.41
358,31.645763842561706,-96.28361200243745,corsicana,66.2,100,1,9.17
359,31.88325550366912,106.57007700084424,baoning,55.4,87,90,4.47
360,32.12074716477652,-76.03031927484457,wilmington,35.38,41,1,6.93
361,32.239492995330224,-87.5219139893882,selma,52.68,58,80,2.48
362,32.35823882588393,57.144148079652325,ravar,48.22,70,92,3.38
363,32.47698465643762,57.711776042731714,tabas,48.49,100,68,4.16
364,32.714476317545035,98.20796150003187,tezu,64.96,56,0,1.14
365,32.83322214809873,94.57239811076926,along,68.47,54,0,1.92
366,32.95196797865243,73.1884013149853,daultala,71.6,43,75,13.87
368,33.30820547031354,60.09155315032379,birjand,41,93,90,4.7
369,33.426951300867245,26.41103963593207,koutsouras,59.56,100,80,1.14
370,33.54569713142095,-111.72814476162704,fountain hills,58.14,30,1,2.37
371,33.66444296197466,66.61033297003135,uruzgan,45.07,67,64,2.71
373,33.901934623082056,54.54364606048577,ardakan,53.6,40,0,2.24
374,34.139426284189454,87.62635034944756,lasa,62.01,58,0,4.7
375,34.25817211474316,-104.24321771434867,roswell,53.6,22,1,10.29
376,34.37691794529687,-25.812947119704276,ponta delgada,60.8,100,75,12.75
377,34.49566377585057,-96.40649232383163,ada,33.4,86,90,8.05
379,34.970647098065385,39.47622146813339,abu kamal,67.39,19,0,10.65
380,35.08939292861908,-83.26707304331504,waynesville,41.29,75,75,4.7
381,35.44563042028018,-60.385392605659604,saint george,46.4,75,20,3.36
382,35.56437625083389,-107.74409594075733,grants,30.2,46,1,13.87
383,35.683122081387594,-71.65256713910281,virginia beach,40.21,92,1,6.93
384,35.92061374249499,53.10640340396898,semnan,51.8,92,0,2.24
385,36.158105403602406,106.17919955619033,pingliang,51.82,79,32,4.94
386,36.27685123415611,5.751474342739215,constantine,37.4,96,20,8.05
388,36.51434289526351,99.28900512772734,xining,44.44,45,12,9.75
389,36.75183455637091,-2.432338434552989,almeria,50,66,0,4.7
390,36.98932621747832,16.429971161507012,melito di porto salvo,53.6,81,40,11.41
391,37.10807204803203,73.19493000122148,gilgit,25.54,89,80,0.13
392,37.22681787858572,50.35335532449136,rudsar,50.63,76,0,4.94
393,37.46430953969313,-72.75439321949898,brigantine,35.51,80,1,4.7
395,37.82054703135424,-18.795135144446192,camacha,60.8,93,40,11.41
397,38.17678452301534,80.40766381596558,aksu,32,96,0,13.42
398,38.29553035356905,23.06228444502733,aliartos,48.2,81,40,3.94
399,38.414276184122755,114.35923063874105,luancheng,55.4,53,0,4.47
400,38.53302201467645,-5.884524875917464,azuaga,39.49,95,80,8.19
401,38.651767845230154,4.828528279452712,mahon,32,100,75,14.99
402,38.77051367578386,-66.57439660755023,nantucket,25.54,35,0,3.36
403,38.88925950633757,66.0942562207916,koson,51.8,71,0,6.93
404,39.00800533689127,-56.18183116886608,saint-pierre,29.39,92,90,4.7
405,39.12675116744495,-3.694636509100903,daimiel,35.53,95,76,11.43
406,39.364242828552364,-101.33980058599315,garden city,32.13,55,1,2.15
407,39.48298865910607,-62.924338622467474,liverpool,32.83,64,75,12.75
410,40.07671781187457,-89.9444199179762,springfield,50,87,75,10.29
411,40.314209472981986,14.082555723294206,sorrento,84.2,25,0,11.41
413,40.670446964643105,-102.02533414559747,sterling,33.82,64,40,5.39
414,40.78919279519681,34.682500870057254,iskilip,49.57,72,20,6.4
415,40.90793862575049,20.96470401445316,resen,39.94,100,92,3.04
417,41.1454302868579,-16.836941207186598,peniche,51.8,93,75,8.05
418,41.382921947965315,-108.30908342386074,rock springs,24.8,73,90,14.99
419,41.50166777851902,10.638340789796018,orbetello,41,86,40,3.36
420,41.62041360907273,23.576990642789866,bansko,45.16,92,48,2.37
421,41.739159439626405,-36.957011382125685,ribeira grande,63.16,96,76,11.77
422,41.85790527018011,-20.603457758661875,vila franca do campo,60.8,100,75,12.75
423,42.095396931287524,40.66373926954435,ardesen,68,37,0,19.46
424,42.21414276184123,101.12765263911518,hovd,33.8,87,75,19.46
425,42.33288859239494,13.984621588890803,penne,48.2,66,48,10.29
426,42.45163442294864,73.65944925334935,oytal,58.21,64,92,5.73
427,42.57038025350235,10.355456578989191,portoferraio,41,86,40,3.36
428,42.68912608405603,118.91045129652798,chifeng,33.64,76,24,7.74
429,42.807871914609734,-12.459057560257023,muros,42.8,100,40,6.93
430,42.92661774516344,97.99715481946433,yumen,46.06,72,24,17.47
431,43.04536357571715,-78.1790707605273,batavia,30.25,68,40,7.85
432,43.16410940627085,92.74452996979858,hami,47.23,78,0,6.51
433,43.28285523682456,55.08891139410949,beyneu,50.74,65,0,4.72
434,43.401601067378266,1.0820535429701863,muret,39.2,93,90,2.37
435,43.520346897931944,106.66703215846724,mandalgovi,43.99,76,8,8.75
436,43.63909272848565,-109.04183589607786,lander,34.75,59,90,13.87
437,43.87658438959306,86.78334052894479,changji,54.43,83,76,7.96
438,43.99533022014677,-72.48309339517968,randolph,27.84,100,1,8.05
439,44.114076050700476,2.661047526961525,rodez,33.8,93,75,8.05
440,44.23282188125418,13.157317540717173,pesaro,41.88,93,75,5.82
441,44.35156771180786,-71.75611694091424,littleton,33.57,100,90,16.11
442,44.470313542361566,-5.432648543332519,gijon,44.6,93,75,14.99
443,44.58905937291527,1.0241792818329998,sarlat-la-caneda,32.13,100,68,3.15
444,44.70780520346898,-6.1671389121663935,aviles,44.6,93,75,14.99
446,45.0640426951301,-98.3191887169828,aberdeen,33.8,100,90,5.82
447,45.182788525683804,-21.4936417495679,rabo de peixe,60.8,100,75,12.75
448,45.30153435623748,11.113749498085127,bovolone,39.2,86,40,5.82
450,45.6577718478986,-87.8540917289514,marinette,33.8,55,90,11.41
451,45.77651767845231,-73.30853086102914,vercheres,15.12,34,1,12.75
452,45.895263509006014,13.711573001984533,rence,36.19,80,64,13.87
453,46.01400933955972,-119.58988927500651,hermiston,44.74,60,1,8.05
454,46.1327551701134,-101.88352011185499,dickinson,28.4,92,90,9.17
455,46.251501000667105,-93.39615421163856,brainerd,34.41,64,90,11.65
456,46.37024683122081,67.21053517742729,zhezkazgan,35.6,100,75,8.95
457,46.607738492328224,85.84155284730778,baijiantan,43.27,98,48,4.5
458,46.72648432288193,93.16440726727265,ulaangom,31.57,85,12,2.71
461,47.20146764509673,6.874027292530286,la chaux-de-fonds,29.79,100,75,1.7
462,47.320213475650434,-66.43646945809238,campbellton,11.68,74,68,10.87
463,47.43895930620414,-57.337089983781446,burgeo,29.59,100,56,30.33
465,47.67645096731155,47.760290708638706,tambovka,38.05,95,92,12.77
466,47.79519679786523,84.75026075826207,zaysan,40.84,72,80,1.36
467,47.91394262841894,89.32785561926823,altay,34.9,84,20,3.04
468,48.03268845897264,36.90058747678998,mezhova,25.72,92,92,17.25
469,48.15143428952635,-7.240594119640022,penzance,30.2,86,90,16.11
470,48.270180120080056,102.49599869486752,bulgan,47.23,31,44,5.17
471,48.38892595063376,26.99286801418279,mitoc,14,85,0,9.17
472,48.50767178118747,22.29095353830337,mynay,24.8,85,90,4.47
474,48.86390927284856,-66.84507011097995,cap-chat,16.45,100,80,19.04
475,48.982655103402266,81.52913598695562,shar,78.01,82,0,14.67
477,49.22014676450968,17.892106248036526,vizovice,21.87,79,90,14.99
479,49.695130086724475,50.38774229784724,ozinki,6.46,89,20,6.17
480,49.81387591727818,-44.14589789928918,torbay,28.4,86,90,29.97
481,49.93262174783189,-94.34964806357186,kenora,30.16,67,90,9.17
482,50.051367578385594,88.57992529029812,kosh-agach,32.74,69,8,0.81
483,50.1701134089393,-31.79150604805973,lagoa,50,87,0,4.7
484,50.28885923949301,-89.80462882111533,thunder bay,21.2,41,90,8.05
485,50.407605070046685,109.55385848178912,krasnyy chikoy,43.09,54,0,3.04
486,50.52635090060039,-77.30268629575332,matagami,64.6,82,0,4.5
487,50.6450967311541,39.5506301409892,pervoye maya,38.41,76,92,2.04
488,50.88258839226151,-112.80130493364716,bassano,22.84,86,76,4.72
489,51.00133422281522,-70.61229023665825,saint-ambroise,24.8,92,20,6.73
490,51.12008005336892,-109.94584880993969,kindersley,24.8,92,90,11.41
491,51.23882588392263,22.66342782469721,swidnik,14.29,88,88,11.77
492,51.35757171447631,0.7217714414546208,sittingbourne,33.33,64,75,18.34
493,51.476317545030014,53.3475022294559,ilek,4.84,87,0,7.63
494,51.59506337558372,12.212902106576081,wolfen,18.72,61,0,10.29
495,51.71380920613743,86.17500117232268,gorno-altaysk,37.24,95,8,3.94
496,51.83255503669113,-25.62229632107268,grindavik,40.14,100,75,10.29
497,51.95130086724484,107.37205878607429,sotnikovo,32,54,0,2.24
498,52.070046697798546,118.12317843081024,sretensk,34.36,46,0,3.6
499,52.188792528352224,111.74175608286498,sosnovo-ozerskoye,32.2,81,8,3.94
500,52.30753835890593,45.1294627702452,malaya serdoba,2.5,66,44,3.15
501,52.426284189459636,-9.993959240920347,tralee,43.39,52,75,2.15
502,52.54503002001334,25.426280798059423,ivanava,13.3,76,76,8.19
503,52.66377585056705,-5.1895401251364035,haverfordwest,33.8,64,8,13.87
504,52.782521681120755,95.22623748901185,toora-khem,39.94,49,0,2.71
506,53.02001334222814,43.5394538055281,belinskiy,-1.82,58,32,2.93
507,53.25750500333555,23.93508834442636,hrodna,19.4,92,0,3.04
508,53.37625083388926,97.91657488827434,nizhneudinsk,42.46,74,0,3.38
509,53.494996664442965,59.83444684556267,fershampenuaz,11.77,79,0,19.82
510,53.61374249499667,-49.595176050198944,bonavista,30.04,90,92,28.88
511,53.73248832555038,66.04356043113012,polovinnoye,16.09,86,24,28.21
512,53.851234156104084,35.733532463547476,kozelsk,4.48,78,8,7.29
513,53.96997998665776,99.99703485017326,tulun,39.76,73,0,4.94
514,54.08872581721147,20.326188253911766,dobre miasto,14.29,73,0,2.93
515,54.207471647765175,12.47047015059951,ribnitz-damgarten,21.2,67,0,4.7
516,54.32621747831888,-18.317711543361227,dingle,87.1,64,20,12.77
517,54.563709139426294,65.16620916015853,zverinogolovskoye,14.2,83,44,26.08
518,54.68245496998,107.0059925518145,kachug,33.19,78,12,3.6
519,54.80120080053368,-67.60071600167593,sept-iles,17.6,48,75,16.11
520,55.276184122748504,103.73177641675997,shestakovo,42.01,63,0,5.17
521,55.39492995330221,8.349952527055109,nordby,17.6,92,0,2.24
522,55.513675783855916,20.351920226016972,zelenogradsk,17.6,92,0,6.71
523,55.632421614409594,84.57914424983528,bolotnoye,23.11,91,0,9.08
524,55.7511674449633,-63.01190924138731,havre-saint-pierre,24.8,68,90,11.41
525,55.86991327551701,33.05491474034574,belyy,12.94,76,0,12.88
526,56.10740493662442,2.991146398608578,den helder,27.84,63,0,24.16
527,56.226150767178126,55.336813514234535,krasnokholmskiy,4.12,80,0,9.19
528,56.34489659773183,-0.5017910692045007,blyth,31.78,69,40,11.41
529,56.46364242828554,48.78373730921737,morki,6.82,78,48,11.54
530,56.58238825883922,48.22738731881728,surok,80.98,90,68,7.18
531,56.70113408939292,84.43803005640845,moryakovskiy zaton,28.87,79,0,8.75
532,56.81987991994663,-15.47143699611182,westport,31.57,96,24,11.21
533,56.938625750500336,-117.44522289968599,peace river,17.6,78,40,3.94
534,57.05737158105404,44.67355544563938,sukhobezvodnoye,17.17,84,68,9.75
535,57.17611741160775,26.303783677815176,cesvaine,24.64,79,44,10.65
536,57.294863242161455,84.87937507225823,krasnyy yar,8.17,88,88,9.19
537,57.41360907271513,85.40836724636617,aleksandrovskoye,32.65,62,0,7.18
538,57.53235490326884,86.7178679510672,pervomayskoye,27.52,92,0,11.32
539,57.651100733822545,-76.1908942255559,moose factory,-7.61,83,75,4.7
540,57.76984656437625,-0.520568048140035,peterhead,71.6,60,75,13.87
541,57.88859239492996,-12.71619888522737,ballina,29.32,93,12,10.42
542,58.12608405603737,-58.96408630869979,saint-augustin,36.59,100,92,4.7
543,58.24482988659105,40.42870089967795,danilov,24.46,93,80,18.48
544,58.48232154769846,69.74887984368544,turtas,34.81,90,92,8.75
546,58.719813208805874,-105.59375646697346,la ronge,14,56,75,6.93
547,58.83855903935958,27.52195327524538,gdov,26.26,91,76,18.14
548,59.07605070046699,16.376525889073577,katrineholm,27.21,63,0,16.11
550,59.55103402268179,56.51118175702058,usolye,0.07,74,8,9.98
552,60.02601734489659,-45.651025959301776,nanortalik,35.26,84,0,50.13
553,60.144763175450294,32.14037427705719,novaya ladoga,30.67,81,92,10.65
554,60.263509006004,24.889781540525377,helsinki,30.2,80,40,11.41
555,60.382254836557706,62.731152617092164,malinovskiy,6.91,69,24,7.74
556,60.50100066711141,39.47135074680105,yertsevo,26.26,88,92,19.48
557,60.61974649766512,5.698118628339174,stanghelle,22.39,79,92,2.37
558,61.21347565043362,-114.53437228915108,hay river,28.4,63,40,8.05
559,61.68845897264845,6.211722944695978,sandane,35.73,92,90,3.36
560,61.807204803202126,-53.78378607331149,nuuk,33.8,74,8,10.29
561,61.92595063375583,-44.701680939297916,qaqortoq,46.4,36,76,39.15
562,62.04469646430954,115.03553987977142,almaznyy,21.22,90,100,18.92
563,62.75717144763175,-102.07281395754116,flin flon,12.04,67,76,4.5
564,62.875917278185455,76.53490969034902,novoagansk,34.27,78,92,16.35
565,62.99466310873916,53.69498067092519,yarega,-1.01,66,80,6.96
566,63.11340893929287,88.81056011070044,turukhansk,21.67,85,88,11.65
567,63.232154769846574,66.91393390757787,oktyabrskoye,32.65,62,0,7.18
568,63.35090060040028,27.32417865988012,iisalmi,23,85,75,10.29
569,63.46964643095396,92.8492958906115,teya,82.4,61,20,11.41
571,63.94462975316878,60.77111361518487,verkhnyaya inta,-1.1,55,44,3.49
572,64.1821214142762,-73.12012261200779,iqaluit,3.2,84,40,1.92
573,64.30086724482987,7.102077264523345,kristiansund,37.58,100,75,13.87
574,64.657104736491,50.00325579238398,koslan,10.33,77,88,7.18
576,64.8945963975984,75.98017522760122,gubkinskiy,24.82,95,88,13.78
578,65.13208805870582,112.41496322063122,aykhal,14.56,79,8,7.96
579,65.2508338892595,50.95517098957254,ust-tsilma,-2.45,71,88,5.95
580,65.3695797198132,74.97265162629611,pangody,2.77,84,88,13.89
581,65.96330887258173,26.19298214386427,rovaniemi,14,85,0,11.41
582,66.08205470313541,77.89370114273714,urengoy,8.89,85,80,15.68
583,66.20080053368912,2.886575839035885,raudeberg,36.77,93,75,20.8
584,66.31954636424283,73.0351467772532,staryy nadym,4.12,88,76,14.12
586,66.55703802535024,-12.485321231291081,hofn,36.16,98,0,10.2
587,66.67578385590394,57.10200767364472,usinsk,-5.96,70,24,7.63
588,66.91327551701133,34.769866196467774,umba,15.64,83,64,8.3
589,67.15076717811874,-46.659932240085396,qasigiannguit,15.8,85,0,3.36
590,67.38825883922615,51.775057616859044,naryan-mar,-10.73,71,24,5.17
591,67.62575050033357,101.3159015685506,tura,78.73,56,0,4.27
592,67.74449633088727,9.660166265485316,sorland,32,100,90,25.28
593,67.86324216144095,66.08706217170496,kharp,-15.86,46,0,3.27
594,67.98198799199466,68.25863195214032,aksarka,-13.61,41,0,3.38
595,68.45697131420948,118.82725976315302,zhigansk,-10.28,36,32,7.4
596,68.57571714476319,85.35192509275194,dudinka,-0.02,75,48,12.77
598,69.2881921280854,-0.12944273894053993,brae,38.17,96,92,12.75
599,69.64442961974649,46.591600887702555,mezen,11.23,75,76,3.71
600,69.8819212808539,34.49359992862472,polyarnyy,5,84,40,5.95
603,70.71314209472982,75.45474896471345,tazovskiy,-0.02,75,56,7.18
604,70.95063375583723,-62.04671443040699,pangnirtung,6.64,79,92,3.15
605,71.06937958639094,18.3184238611355,tromso,28.4,86,40,5.82
606,71.78185456971315,13.45447952113767,stokmarknes,32.05,92,90,18.34
607,72.01934623082056,-71.77537351442629,clyde river,-14.81,68,90,13.87
608,72.73182121414277,69.33986226238781,yar-sale,-4.43,79,44,5.39
609,72.85056704469648,31.7322383987447,vardo,36.82,36,1,3.36
610,74.63175450300201,-9.778224459256947,husavik,20.32,86,48,9.98
611,74.75050033355569,-93.66614282982734,thompson,1.4,45,20,5.82
612,74.8692461641094,40.53686062385361,ostrovnoy,10.96,94,76,18.37
613,75.81921280853902,27.360519871855388,mehamn,25.09,85,40,18.34
614,76.76917945296864,-118.52894324297046,norman wells,14,85,90,6.93
615,77.71914609739827,-40.85194759611471,tasiilaq,30.2,92,92,15.23
616,79.61907938625751,-3.5740594634476537,klaksvik,39.2,80,92,17.22
617,81.87525016677785,-44.538310524830734,ilulissat,15.8,85,0,3.36
618,84.3689126084056,92.85844228812152,talnakh,1.42,89,56,14.34
620,86.62508338892596,103.6648733328586,khatanga,-9.29,84,56,11.21
623,87.33755837224817,-113.4223726330116,yellowknife,21.2,62,20,12.75
624,87.69379586390929,-59.35925435716968,narsaq,46.4,36,20,39.15
625,88.05003335557038,114.09590456038003,saskylakh,-11.63,75,76,19.26
628,88.64376250833888,79.12572642284724,dikson,-9.47,100,68,22.39
629,88.76250833889259,13.906198676545813,longyearbyen,3.2,65,20,20.8
630,88.8812541694463,-46.888647370731874,upernavik,1.87,99,48,17.69
631,89.0,-66.89175124186093,qaanaaq,-20.36,58,0,8.75
